{
  "name": "The Piano Works Farringdon",
  "address": "113-117 Farringdon Rd, London EC1R 3BX, UK",
  "city": "London",
  "description": "description goes here",
  "startTime": null,
  "endTime": null,
  
  "location":{
    "coordinates":[51.5229868,-0.10797760000002654],
    "type":"Point"
  },
  "locationLL": {
    "lat": 51.5229868,
    "lng": -0.10797760000002654
  },
  "place_id": "ChIJuwdHrU8bdkgRfj7-Ec8Od8w"
}
{
  "name": "The Half Moon",
  "address": "213-223 Mile End Rd, Bethnal Green, London E1 4AA, UK",
  "city": "London",
  "description": "description goes here",
  "startTime": null,
  "endTime": null,
  "location":{
    "coordinates":[51.52218939999999,-0.045396799999934956],
    "type":"Point"
  },
  "locationLL": {
    "lat": 51.52218939999999,
    "lng": -0.045396799999934956
  },
  "place_id": "ChIJ2bYGyCkddkgR-DrrIs-nii8"
}
{
  "name": "Belgrave Music Hall & Canteen",
  "address": "Cross Belgrave St, Leeds LS2 8JP, UK",
  "city": "Leeds",
  "description": "description goes here",
  "startTime": null,
  "endTime": null,
  "location":{
    "coordinates":[53.8007855,-1.5408460999999534],
    "type":"Point"
  },
  "locationLL": {
    "lat": 53.8007855,
    "lng": -1.5408460999999534
  },
  "place_id": "ChIJGWSB-hpceUgRiAe9GzyZGdw"
}
{
  "name": "The Alchemist",
  "address": "27 Albion St, Leeds LS1 6HW, UK",
  "city": "Leeds",
  "description": "description goes here",
  "startTime": null,
  "endTime": null,
  "location":{
    "coordinates":[53.7961272,-1.5440538999999944],
    "type":"Point"
  },
  "locationLL": {
    "lat": 53.7961272,
    "lng": -1.5440538999999944
  },
  "place_id": "ChIJvwXvNxlceUgRxvVflhf42Hw"
}
{
  "name": "Call Lane Social",
  "address": "38 Call Ln, Leeds LS1 6DT, UK",
  "city": "Leeds",
  "description": "description goes here",
  "startTime": null,
  "endTime": null,
  "location":{
    "coordinates":[53.795552,-1.5411384000000226],
    "type":"Point"
  },
  "locationLL": {
    "lat": 53.795552,
    "lng": -1.5411384000000226
  },
  "place_id": "ChIJ0TxipBlceUgR5fGCUplqseQ"
}
{
  "name": "Ps Tattershall Castle",
  "address": "Ps Tattershall Castle, Victoria Embankment, London SW1A 2HR, UK",
  "city": "London",
  "description": "description goes here",
  "startTime": null,
  "endTime": null,
  "location":{
    "coordinates":[51.505666,-0.12226729999997588],
    "type":"Point"
  },
  "locationLL": {
    "lat": 51.505666,
    "lng": -0.12226729999997588
  },
  "place_id": "ChIJo_LUxcgEdkgRGZYhguAAc60"
}